{
"type": "FeatureCollection",
"crs": { "type": "name", "properties": { "name": "urn:ogc:def:crs:OGC:1.3:CRS84" } },
"features": [
{ "type": "Feature", "properties": { "NOMBRE": "Construcción agua potable y alcantarillado Escuela Rural el Yeco", "LATITUD": -33.31781, "LONGITUD": -71.64568 }, "geometry": { "type": "Point", "coordinates": [ -71.64568, -33.31781 ] } },
{ "type": "Feature", "properties": { "NOMBRE": "Construcción alcantarillado la Puntilla I", "LATITUD": -33.371101, "LONGITUD": -71.678859 }, "geometry": { "type": "Point", "coordinates": [ -71.678859, -33.371101 ] } },
{ "type": "Feature", "properties": { "NOMBRE": "Construcción alcantarillado la Puntilla II", "LATITUD": -33.369567, "LONGITUD": -71.678826 }, "geometry": { "type": "Point", "coordinates": [ -71.678826, -33.369567 ] } },
{ "type": "Feature", "properties": { "NOMBRE": "Construcción extensión alcantarillado Loteo El Quillay", "LATITUD": null, "LONGITUD": null }, "geometry": null },
{ "type": "Feature", "properties": { "NOMBRE": "Construcción Red de Alcantarillado Sector Canelo-Canelillo  Zona 3", "LATITUD": -33.368528, "LONGITUD": -71.68491 }, "geometry": { "type": "Point", "coordinates": [ -71.68491, -33.368528 ] } },
{ "type": "Feature", "properties": { "NOMBRE": "Construcción Red de Alcantarillado Sector Canelo-Canelillo  Zona 6-7-8", "LATITUD": -33.369567, "LONGITUD": -71.688748 }, "geometry": { "type": "Point", "coordinates": [ -71.688748, -33.369567 ] } },
{ "type": "Feature", "properties": { "NOMBRE": "Construcción APR San José - El Yeco", "LATITUD": null, "LONGITUD": null }, "geometry": null },
{ "type": "Feature", "properties": { "NOMBRE": "Construcción Casetas Sanitarias, Solución Vía Nautica, Albatros y El Arrayan", "LATITUD": null, "LONGITUD": null }, "geometry": null },
{ "type": "Feature", "properties": { "NOMBRE": "Pavimentacion circuito de Pescadores Oriente y Los Castaños", "LATITUD": -33.366357, "LONGITUD": -71.672523 }, "geometry": { "type": "Point", "coordinates": [ -71.672523, -33.366357 ] } },
{ "type": "Feature", "properties": { "NOMBRE": "Pavimentacion Circuito Pescadores Poniente", "LATITUD": -33.366364, "LONGITUD": -71.672838 }, "geometry": { "type": "Point", "coordinates": [ -71.672838, -33.366364 ] } },
{ "type": "Feature", "properties": { "NOMBRE": "Seguridad Vial Colegio Rurales Sector San José", "LATITUD": null, "LONGITUD": null }, "geometry": null },
{ "type": "Feature", "properties": { "NOMBRE": "Proyecto de Pavimentación y Aguas Lluvias Avda. Jorge Matte", "LATITUD": -33.37524, "LONGITUD": -71.682971 }, "geometry": { "type": "Point", "coordinates": [ -71.682971, -33.37524 ] } },
{ "type": "Feature", "properties": { "NOMBRE": "Reposición aceras Carlos Alessandri (Playa Fósiles)", "LATITUD": -33.36485, "LONGITUD": -71.67666 }, "geometry": { "type": "Point", "coordinates": [ -71.67666, -33.36485 ] } },
{ "type": "Feature", "properties": { "NOMBRE": "Construcción veredas Ruta G-812 San José", "LATITUD": -33.29982, "LONGITUD": -71.56318 }, "geometry": { "type": "Point", "coordinates": [ -71.56318, -33.29982 ] } },
{ "type": "Feature", "properties": { "NOMBRE": "Mejoramiento aceras calle Julio Hurtado y escalera calle 26", "LATITUD": -33.35857, "LONGITUD": -71.66067 }, "geometry": { "type": "Point", "coordinates": [ -71.66067, -33.35857 ] } },
{ "type": "Feature", "properties": { "NOMBRE": "Pavimentacion Loteo Minerva el Yeco", "LATITUD": -33.310459, "LONGITUD": -71.647646 }, "geometry": { "type": "Point", "coordinates": [ -71.647646, -33.310459 ] } },
{ "type": "Feature", "properties": { "NOMBRE": "Pavimentación calles sector la Rinconada", "LATITUD": -33.371056, "LONGITUD": -71.674438 }, "geometry": { "type": "Point", "coordinates": [ -71.674438, -33.371056 ] } },
{ "type": "Feature", "properties": { "NOMBRE": "Construcción aceras camino San José del Peumal", "LATITUD": null, "LONGITUD": null }, "geometry": null },
{ "type": "Feature", "properties": { "NOMBRE": "Pavimentacion Calle Obreros Municipales", "LATITUD": -33.368996, "LONGITUD": -71.667671 }, "geometry": { "type": "Point", "coordinates": [ -71.667671, -33.368996 ] } },
{ "type": "Feature", "properties": { "NOMBRE": "Pavimentacion distintas calles Brisas de Mirasol (4 calles)", "LATITUD": -33.328218, "LONGITUD": -71.639344 }, "geometry": { "type": "Point", "coordinates": [ -71.639344, -33.328218 ] } },
{ "type": "Feature", "properties": { "NOMBRE": "Bacheos en distintos sectores de la comuna", "LATITUD": -33.372393, "LONGITUD": -71.666733 }, "geometry": { "type": "Point", "coordinates": [ -71.666733, -33.372393 ] } },
{ "type": "Feature", "properties": { "NOMBRE": "Mejoramiento pavimentación Avda Santa Teresita", "LATITUD": -33.366677, "LONGITUD": -71.673103 }, "geometry": { "type": "Point", "coordinates": [ -71.673103, -33.366677 ] } },
{ "type": "Feature", "properties": { "NOMBRE": "Mejoramiento pavimentación avda Peñablanca", "LATITUD": -33.367283, "LONGITUD": -71.673685 }, "geometry": { "type": "Point", "coordinates": [ -71.673685, -33.367283 ] } },
{ "type": "Feature", "properties": { "NOMBRE": "Construcción cuatro semáforos en puntos críticos de la intersección vial comuna de Algarrobo", "LATITUD": -33.359033, "LONGITUD": -71.663474 }, "geometry": { "type": "Point", "coordinates": [ -71.663474, -33.359033 ] } },
{ "type": "Feature", "properties": { "NOMBRE": "Pavimentacion Avenida Santa Teresa de los Andes", "LATITUD": -33.365654, "LONGITUD": -71.661065 }, "geometry": { "type": "Point", "coordinates": [ -71.661065, -33.365654 ] } },
{ "type": "Feature", "properties": { "NOMBRE": "Mejoramiento avenida Guillermo Mucke / San Eugenio", "LATITUD": -33.366584, "LONGITUD": -71.670114 }, "geometry": { "type": "Point", "coordinates": [ -71.670114, -33.366584 ] } },
{ "type": "Feature", "properties": { "NOMBRE": "Mejoramiento seguridad vial y peatonal calles El Arrayán- El Molle", "LATITUD": -33.371715, "LONGITUD": -71.664735 }, "geometry": { "type": "Point", "coordinates": [ -71.664735, -33.371715 ] } },
{ "type": "Feature", "properties": { "NOMBRE": "Canalización y descarga de aguas lluvias Calle Almirante Lynch (Socavon Mirasol)", "LATITUD": null, "LONGITUD": null }, "geometry": null },
{ "type": "Feature", "properties": { "NOMBRE": "Construcción sendero peatonal y reparación puente La Guitarra", "LATITUD": -33.369704, "LONGITUD": -71.66566 }, "geometry": { "type": "Point", "coordinates": [ -71.66566, -33.369704 ] } },
{ "type": "Feature", "properties": { "NOMBRE": "Diseño y construcción de 2 Refugios Peatonales Acceso Comunidad El Yeco", "LATITUD": null, "LONGITUD": null }, "geometry": null },
{ "type": "Feature", "properties": { "NOMBRE": "Seguridad Vial, Señalización y Demarcación Ruta F-840 Acceso Escuela El Bochinche", "LATITUD": -33.329389, "LONGITUD": -71.588501 }, "geometry": { "type": "Point", "coordinates": [ -71.588501, -33.329389 ] } },
{ "type": "Feature", "properties": { "NOMBRE": "Pasajes Geminis, Piscis, Acuario, Puerto de Taltal, Puerto de Chañaral", "LATITUD": null, "LONGITUD": null }, "geometry": null },
{ "type": "Feature", "properties": { "NOMBRE": "Reparación y Mantención Refugio Peatonal Acceso Escuela El Yeco", "LATITUD": null, "LONGITUD": null }, "geometry": null },
{ "type": "Feature", "properties": { "NOMBRE": "Mejoramiento Aguas Lluvias Cruce La Puntilla con Calle La Municipalidad", "LATITUD": -33.367873, "LONGITUD": -71.679061 }, "geometry": { "type": "Point", "coordinates": [ -71.679061, -33.367873 ] } },
{ "type": "Feature", "properties": { "NOMBRE": "Diseño Calle Los Libertadores - El Yeco", "LATITUD": -33.309224, "LONGITUD": -71.645776 }, "geometry": { "type": "Point", "coordinates": [ -71.645776, -33.309224 ] } },
{ "type": "Feature", "properties": { "NOMBRE": "Mejoramiento Pavimentación circuito calles Minas Gerais y Brasilia", "LATITUD": null, "LONGITUD": null }, "geometry": null },
{ "type": "Feature", "properties": { "NOMBRE": "Construcción Centro de educación ambiental", "LATITUD": -33.377708, "LONGITUD": -71.672685 }, "geometry": { "type": "Point", "coordinates": [ -71.672685, -33.377708 ] } },
{ "type": "Feature", "properties": { "NOMBRE": "Construcción sede vecinal JJVV El Litre", "LATITUD": -33.372586, "LONGITUD": -71.664226 }, "geometry": { "type": "Point", "coordinates": [ -71.664226, -33.372586 ] } },
{ "type": "Feature", "properties": { "NOMBRE": "Mejoramiento sede vecinal JJVV Stella Maris y Aguas Marinas", "LATITUD": -33.36496, "LONGITUD": -71.66267 }, "geometry": { "type": "Point", "coordinates": [ -71.66267, -33.36496 ] } },
{ "type": "Feature", "properties": { "NOMBRE": "Cierre de Quebrada del Pacífico", "LATITUD": -33.367765, "LONGITUD": -71.663799 }, "geometry": { "type": "Point", "coordinates": [ -71.663799, -33.367765 ] } },
{ "type": "Feature", "properties": { "NOMBRE": "Construcción Cierre de Quebrada las Petras", "LATITUD": -33.373798, "LONGITUD": -71.686543 }, "geometry": { "type": "Point", "coordinates": [ -71.686543, -33.373798 ] } },
{ "type": "Feature", "properties": { "NOMBRE": "Mejoramiento Plaza Cementerio San José", "LATITUD": -33.28003, "LONGITUD": -71.58388 }, "geometry": { "type": "Point", "coordinates": [ -71.58388, -33.28003 ] } },
{ "type": "Feature", "properties": { "NOMBRE": "Centro Social agrícola para el adulto Mayor, San José", "LATITUD": -33.304693, "LONGITUD": -71.553952 }, "geometry": { "type": "Point", "coordinates": [ -71.553952, -33.304693 ] } },
{ "type": "Feature", "properties": { "NOMBRE": "Construcción Plaza Deportiva Parque Residencial", "LATITUD": -33.37437, "LONGITUD": -71.67538 }, "geometry": { "type": "Point", "coordinates": [ -71.67538, -33.37437 ] } },
{ "type": "Feature", "properties": { "NOMBRE": "Construcción Centro veterinario de atención primaria, Villa Algarrobal", "LATITUD": -33.37957, "LONGITUD": -71.66591 }, "geometry": { "type": "Point", "coordinates": [ -71.66591, -33.37957 ] } },
{ "type": "Feature", "properties": { "NOMBRE": "Mejoramiento Nave Municipal N°2, Playa Internacional", "LATITUD": -33.3562, "LONGITUD": -71.65825 }, "geometry": { "type": "Point", "coordinates": [ -71.65825, -33.3562 ] } },
{ "type": "Feature", "properties": { "NOMBRE": "Construcción sede vecinal JJVV Albatros", "LATITUD": -33.37367, "LONGITUD": -71.66803 }, "geometry": { "type": "Point", "coordinates": [ -71.66803, -33.37367 ] } },
{ "type": "Feature", "properties": { "NOMBRE": "Construcción Plaza dura Rotonda Mirasol", "LATITUD": -33.327087, "LONGITUD": -71.644378 }, "geometry": { "type": "Point", "coordinates": [ -71.644378, -33.327087 ] } },
{ "type": "Feature", "properties": { "NOMBRE": "Construcción sede vecinal Parque Residencial", "LATITUD": -33.377283, "LONGITUD": -71.675969 }, "geometry": { "type": "Point", "coordinates": [ -71.675969, -33.377283 ] } },
{ "type": "Feature", "properties": { "NOMBRE": "Mejoramiento Plaza Deportiva sector Stella Maris", "LATITUD": -33.363797, "LONGITUD": -71.663378 }, "geometry": { "type": "Point", "coordinates": [ -71.663378, -33.363797 ] } },
{ "type": "Feature", "properties": { "NOMBRE": "Tractor para limpieza de playas", "LATITUD": -33.364037, "LONGITUD": -71.674127 }, "geometry": { "type": "Point", "coordinates": [ -71.674127, -33.364037 ] } },
{ "type": "Feature", "properties": { "NOMBRE": "Reposición Retroexcavadora", "LATITUD": -33.372903, "LONGITUD": -71.664261 }, "geometry": { "type": "Point", "coordinates": [ -71.664261, -33.372903 ] } },
{ "type": "Feature", "properties": { "NOMBRE": "Reposición de 2 camionetas de Seguridad pública", "LATITUD": -33.373163, "LONGITUD": -71.663883 }, "geometry": { "type": "Point", "coordinates": [ -71.663883, -33.373163 ] } },
{ "type": "Feature", "properties": { "NOMBRE": "Reposición camión alza hombres para Alumbrado público", "LATITUD": -33.373209, "LONGITUD": -71.663916 }, "geometry": { "type": "Point", "coordinates": [ -71.663916, -33.373209 ] } },
{ "type": "Feature", "properties": { "NOMBRE": "Construcción complejo deportivo el Manzano", "LATITUD": -33.375641, "LONGITUD": -71.666793 }, "geometry": { "type": "Point", "coordinates": [ -71.666793, -33.375641 ] } },
{ "type": "Feature", "properties": { "NOMBRE": "Mejoramiento Estadio Municipal El Litre (camarines y oficinas)", "LATITUD": -33.3718, "LONGITUD": -71.666615 }, "geometry": { "type": "Point", "coordinates": [ -71.666615, -33.3718 ] } },
{ "type": "Feature", "properties": { "NOMBRE": "Adquisición Buses municipales", "LATITUD": -33.366791, "LONGITUD": -71.673031 }, "geometry": { "type": "Point", "coordinates": [ -71.673031, -33.366791 ] } },
{ "type": "Feature", "properties": { "NOMBRE": "Proyecto de iluminación peatonal Aguas Marinas, Camino Casablanca y avenida Bosquemar", "LATITUD": -33.360417, "LONGITUD": -71.657209 }, "geometry": { "type": "Point", "coordinates": [ -71.657209, -33.360417 ] } },
{ "type": "Feature", "properties": { "NOMBRE": "Proyecto de iluminación peatonal Avenida Alicia Monckeberg / Carlos Pasa Videla / El Peñon", "LATITUD": -33.368814, "LONGITUD": -71.665094 }, "geometry": { "type": "Point", "coordinates": [ -71.665094, -33.368814 ] } },
{ "type": "Feature", "properties": { "NOMBRE": "Mejoramiento plaza Brisas Algarrobinas", "LATITUD": -33.368461, "LONGITUD": -71.664489 }, "geometry": { "type": "Point", "coordinates": [ -71.664489, -33.368461 ] } },
{ "type": "Feature", "properties": { "NOMBRE": "Mejoramiento plaza Villa los Claveles", "LATITUD": -33.370785, "LONGITUD": -71.662779 }, "geometry": { "type": "Point", "coordinates": [ -71.662779, -33.370785 ] } },
{ "type": "Feature", "properties": { "NOMBRE": "Reposición 2°cuartel de Bomberos Mirasol", "LATITUD": -33.326986, "LONGITUD": -71.644183 }, "geometry": { "type": "Point", "coordinates": [ -71.644183, -33.326986 ] } },
{ "type": "Feature", "properties": { "NOMBRE": "Construcción Plaza Mirador Tierra del Fuego", "LATITUD": -33.37004, "LONGITUD": -71.6616 }, "geometry": { "type": "Point", "coordinates": [ -71.6616, -33.37004 ] } },
{ "type": "Feature", "properties": { "NOMBRE": "Construcción Estadio Club deportivo Unión San José", "LATITUD": -33.329712, "LONGITUD": -71.58596 }, "geometry": { "type": "Point", "coordinates": [ -71.58596, -33.329712 ] } },
{ "type": "Feature", "properties": { "NOMBRE": "Mejoramiento sede las Tinajas y JJVV Bosques del mar", "LATITUD": -33.376793, "LONGITUD": -71.682695 }, "geometry": { "type": "Point", "coordinates": [ -71.682695, -33.376793 ] } },
{ "type": "Feature", "properties": { "NOMBRE": "Reposición sede vecinal JJVV Minerva el Yeco", "LATITUD": -33.3119, "LONGITUD": -71.647214 }, "geometry": { "type": "Point", "coordinates": [ -71.647214, -33.3119 ] } },
{ "type": "Feature", "properties": { "NOMBRE": "Adquisición Punto Limpio", "LATITUD": null, "LONGITUD": null }, "geometry": null },
{ "type": "Feature", "properties": { "NOMBRE": "Adquisición Camión Algibe", "LATITUD": null, "LONGITUD": null }, "geometry": null },
{ "type": "Feature", "properties": { "NOMBRE": "Construcción Vivero", "LATITUD": null, "LONGITUD": null }, "geometry": null },
{ "type": "Feature", "properties": { "NOMBRE": "Construcción Sede Funcionarios Municipales", "LATITUD": null, "LONGITUD": null }, "geometry": null },
{ "type": "Feature", "properties": { "NOMBRE": "Mejoramiento Baños Públicos Borde Mar", "LATITUD": null, "LONGITUD": null }, "geometry": null },
{ "type": "Feature", "properties": { "NOMBRE": "Mejoramiento Club La Rayuela, El Litre", "LATITUD": null, "LONGITUD": null }, "geometry": null },
{ "type": "Feature", "properties": { "NOMBRE": "Proyecto Cierres Parque Canelo - Canelillo", "LATITUD": null, "LONGITUD": null }, "geometry": null },
{ "type": "Feature", "properties": { "NOMBRE": "Diseño ampliación Colegio el Bochinche", "LATITUD": -33.329574, "LONGITUD": -71.589034 }, "geometry": { "type": "Point", "coordinates": [ -71.589034, -33.329574 ] } },
{ "type": "Feature", "properties": { "NOMBRE": "Construcción sala nivel medio Jardín los Claveles", "LATITUD": -33.369685, "LONGITUD": -71.662562 }, "geometry": { "type": "Point", "coordinates": [ -71.662562, -33.369685 ] } },
{ "type": "Feature", "properties": { "NOMBRE": "Construcción Techumbre multicancha Escuela San José", "LATITUD": -33.302298, "LONGITUD": -71.558803 }, "geometry": { "type": "Point", "coordinates": [ -71.558803, -33.302298 ] } },
{ "type": "Feature", "properties": { "NOMBRE": "Construcción Aula Jardin Los Claveles", "LATITUD": -33.369709, "LONGITUD": -71.662547 }, "geometry": { "type": "Point", "coordinates": [ -71.662547, -33.369709 ] } },
{ "type": "Feature", "properties": { "NOMBRE": "Normalización eléctrica Escuela El Yeco", "LATITUD": -33.317954, "LONGITUD": -71.645591 }, "geometry": { "type": "Point", "coordinates": [ -71.645591, -33.317954 ] } },
{ "type": "Feature", "properties": { "NOMBRE": "Cierre perimetral escuela San José y Los Claveles", "LATITUD": -33.30218, "LONGITUD": -71.558477 }, "geometry": { "type": "Point", "coordinates": [ -71.558477, -33.30218 ] } },
{ "type": "Feature", "properties": { "NOMBRE": "Suministro e instalación toldos vela distintos establecimientos educacionales", "LATITUD": -33.318119, "LONGITUD": -71.645653 }, "geometry": { "type": "Point", "coordinates": [ -71.645653, -33.318119 ] } },
{ "type": "Feature", "properties": { "NOMBRE": "Construcción canchas de basquetball 3, Liceo Colegio Carlos Alessandri", "LATITUD": -33.37311, "LONGITUD": -71.665858 }, "geometry": { "type": "Point", "coordinates": [ -71.665858, -33.37311 ] } },
{ "type": "Feature", "properties": { "NOMBRE": "Reposición ventanas termopanel Escuela Básica El Yeco", "LATITUD": null, "LONGITUD": null }, "geometry": null },
{ "type": "Feature", "properties": { "NOMBRE": "Construcción CESFAM Mirasol", "LATITUD": null, "LONGITUD": null }, "geometry": null },
{ "type": "Feature", "properties": { "NOMBRE": "Habilitación Sala de Imágenes y Adquisición Equipamiento", "LATITUD": null, "LONGITUD": null }, "geometry": null },
{ "type": "Feature", "properties": { "NOMBRE": "Normalización Posta Rural el Yeco", "LATITUD": -33.308045, "LONGITUD": -71.643198 }, "geometry": { "type": "Point", "coordinates": [ -71.643198, -33.308045 ] } },
{ "type": "Feature", "properties": { "NOMBRE": "Construcción Bodega Farmacia CESFAM Algarrobo", "LATITUD": -33.365957, "LONGITUD": -71.668235 }, "geometry": { "type": "Point", "coordinates": [ -71.668235, -33.365957 ] } },
{ "type": "Feature", "properties": { "NOMBRE": "Instalación Paneles Solares CESFAM Algarrobo", "LATITUD": -33.365957, "LONGITUD": -71.668235 }, "geometry": { "type": "Point", "coordinates": [ -71.668235, -33.365957 ] } },
{ "type": "Feature", "properties": { "NOMBRE": "Luminarias peatonales Ruta G-986-F", "LATITUD": -33.355642, "LONGITUD": -71.653859 }, "geometry": { "type": "Point", "coordinates": [ -71.653859, -33.355642 ] } },
{ "type": "Feature", "properties": { "NOMBRE": "Normalización Eléctrica Estadio Municipal (Gimnasio)", "LATITUD": null, "LONGITUD": null }, "geometry": null },
{ "type": "Feature", "properties": { "NOMBRE": "Recambio masivo de luminarias", "LATITUD": null, "LONGITUD": null }, "geometry": null },
{ "type": "Feature", "properties": { "NOMBRE": "Asistencia Técnica", "LATITUD": null, "LONGITUD": null }, "geometry": null },
{ "type": "Feature", "properties": { "NOMBRE": "Normalización Eléctrica Edificio Consistorial", "LATITUD": null, "LONGITUD": null }, "geometry": null },
{ "type": "Feature", "properties": { "NOMBRE": "Alumbrado Público Sector Mirasol", "LATITUD": null, "LONGITUD": null }, "geometry": null },
{ "type": "Feature", "properties": { "NOMBRE": "Alumbrado Público Sector El Canelo", "LATITUD": null, "LONGITUD": null }, "geometry": null },
{ "type": "Feature", "properties": { "NOMBRE": "Alumbrado Público Sector San José", "LATITUD": null, "LONGITUD": null }, "geometry": null },
{ "type": "Feature", "properties": { "NOMBRE": "Proyecto Netbilling Techos Solares Escuela El Yeco", "LATITUD": null, "LONGITUD": null }, "geometry": null },
{ "type": "Feature", "properties": { "NOMBRE": "Alumbrado Camino El Totoral", "LATITUD": null, "LONGITUD": null }, "geometry": null },
{ "type": "Feature", "properties": { "NOMBRE": "Alumbrado Camino El Libertador El Yeco", "LATITUD": null, "LONGITUD": null }, "geometry": null },
{ "type": "Feature", "properties": { "NOMBRE": "Alumbrado Accesos Comunal", "LATITUD": null, "LONGITUD": null }, "geometry": null },
{ "type": "Feature", "properties": { "NOMBRE": "Actualización del Plan Turístico  Comunal", "LATITUD": -33.359262, "LONGITUD": -71.664134 }, "geometry": { "type": "Point", "coordinates": [ -71.664134, -33.359262 ] } },
{ "type": "Feature", "properties": { "NOMBRE": "Actualización del Plan Regulador Comunal", "LATITUD": null, "LONGITUD": null }, "geometry": null },
{ "type": "Feature", "properties": { "NOMBRE": "Actualización del Plan de Desarrollo Comunal", "LATITUD": null, "LONGITUD": null }, "geometry": null },
{ "type": "Feature", "properties": { "NOMBRE": "Modificación Plan Regulador Altos de Algarrobo", "LATITUD": null, "LONGITUD": null }, "geometry": null },
{ "type": "Feature", "properties": { "NOMBRE": "Modificación Plan Regulador Punta Fraile", "LATITUD": null, "LONGITUD": null }, "geometry": null },
{ "type": "Feature", "properties": { "NOMBRE": "Modificación Plan Regulador La Portada", "LATITUD": null, "LONGITUD": null }, "geometry": null },
{ "type": "Feature", "properties": { "NOMBRE": "Enmienda Escuela El Yeco", "LATITUD": null, "LONGITUD": null }, "geometry": null },
{ "type": "Feature", "properties": { "NOMBRE": "Enmienda Aguas Marinas", "LATITUD": null, "LONGITUD": null }, "geometry": null },
{ "type": "Feature", "properties": { "NOMBRE": "Enmienda Centro Humedales", "LATITUD": null, "LONGITUD": null }, "geometry": null },
{ "type": "Feature", "properties": { "NOMBRE": "Planos de Detalle (calles Av. Libertador - Av. Carlos Alessandri)", "LATITUD": null, "LONGITUD": null }, "geometry": null },
{ "type": "Feature", "properties": { "NOMBRE": "Sede Vecinal Nao (sector Altos de Algarrobo)", "LATITUD": null, "LONGITUD": null }, "geometry": null },
{ "type": "Feature", "properties": { "NOMBRE": "Etapa de Diseño - Construcción Centro Cultural Algarrobo (con biblioteca)", "LATITUD": -33.374749, "LONGITUD": -71.677081 }, "geometry": { "type": "Point", "coordinates": [ -71.677081, -33.374749 ] } },
{ "type": "Feature", "properties": { "NOMBRE": "Conservación Emergencia Casa de la Cultura (techumbre - red eléctrica)", "LATITUD": -33.359356, "LONGITUD": -71.66409 }, "geometry": { "type": "Point", "coordinates": [ -71.66409, -33.359356 ] } },
{ "type": "Feature", "properties": { "NOMBRE": "Construccion Extension de Alcantarillado Calle El Boldo", "LATITUD": null, "LONGITUD": null }, "geometry": null },
{ "type": "Feature", "properties": { "NOMBRE": "Construccion Alcantarillado Bosques de Algarrobo", "LATITUD": null, "LONGITUD": null }, "geometry": null },
{ "type": "Feature", "properties": { "NOMBRE": "Construccion Alcantarillado Bosques de Algarrobo", "LATITUD": -33.359987, "LONGITUD": -71.646396 }, "geometry": { "type": "Point", "coordinates": [ -71.646396, -33.359987 ] } },
{ "type": "Feature", "properties": { "NOMBRE": "Construcción Alcantarillado Etapa 4 (El Canelo)", "LATITUD": null, "LONGITUD": null }, "geometry": null },
{ "type": "Feature", "properties": { "NOMBRE": "Construcción Alcantarillado Etapa 5 (Los Claveles)", "LATITUD": null, "LONGITUD": null }, "geometry": null },
{ "type": "Feature", "properties": { "NOMBRE": "Mejoramiento Clubes Deportivos Union El Litre y CSD Algarrobo", "LATITUD": -33.370298, "LONGITUD": -71.666681 }, "geometry": { "type": "Point", "coordinates": [ -71.666681, -33.370298 ] } },
{ "type": "Feature", "properties": { "NOMBRE": "Reposicion de Aceras Ruta G-986-F", "LATITUD": -33.355563, "LONGITUD": -71.653077 }, "geometry": { "type": "Point", "coordinates": [ -71.653077, -33.355563 ] } },
{ "type": "Feature", "properties": { "NOMBRE": "Mejoramiento Cruce Pueblo de Artesanos Ruta G-986-F", "LATITUD": -33.355563, "LONGITUD": -71.653077 }, "geometry": { "type": "Point", "coordinates": [ -71.653077, -33.355563 ] } },
{ "type": "Feature", "properties": { "NOMBRE": "Mejoramiento Club Deportivo El Manzano", "LATITUD": -33.360288, "LONGITUD": -71.656651 }, "geometry": { "type": "Point", "coordinates": [ -71.656651, -33.360288 ] } },
{ "type": "Feature", "properties": { "NOMBRE": "SPD Recambio de Luminarias Sectores El Canelo y Mirasol", "LATITUD": -33.370426, "LONGITUD": -71.681851 }, "geometry": { "type": "Point", "coordinates": [ -71.681851, -33.370426 ] } },
{ "type": "Feature", "properties": { "NOMBRE": "Mejoramiento Plaza Parque Residencial", "LATITUD": -33.375288, "LONGITUD": -71.67514 }, "geometry": { "type": "Point", "coordinates": [ -71.67514, -33.375288 ] } },
{ "type": "Feature", "properties": { "NOMBRE": "Construccion Plaza Civica Aguas Marinas", "LATITUD": -33.359066, "LONGITUD": -71.655401 }, "geometry": { "type": "Point", "coordinates": [ -71.655401, -33.359066 ] } },
{ "type": "Feature", "properties": { "NOMBRE": "Construccion Veredas Sector Los Albatros", "LATITUD": -33.372889, "LONGITUD": -71.668401 }, "geometry": { "type": "Point", "coordinates": [ -71.668401, -33.372889 ] } },
{ "type": "Feature", "properties": { "NOMBRE": "Adquisicion Sistema de Televigilancia", "LATITUD": -33.30405, "LONGITUD": -71.556548 }, "geometry": { "type": "Point", "coordinates": [ -71.556548, -33.30405 ] } },
{ "type": "Feature", "properties": { "NOMBRE": "Reposicion Sistema de Iluminacion y Cierre de Cancha Estadio Municipal", "LATITUD": -33.371684, "LONGITUD": -71.665969 }, "geometry": { "type": "Point", "coordinates": [ -71.665969, -33.371684 ] } },
{ "type": "Feature", "properties": { "NOMBRE": "Conservación Municipal Casa de la Cultura (fachada - muro verteolas)", "LATITUD": -33.359356, "LONGITUD": -71.66409 }, "geometry": { "type": "Point", "coordinates": [ -71.66409, -33.359356 ] } }
]
}
